{
  "features": [
    {
      "type": "Feature",
      "properties": {
        "name": "Abaeté",
        "state": "MG",
        "name_id": "abaete_mg"
      },
      "geometry": {
        "coordinates": [-45.445833, -19.16],
        "type": "Point"
      }
    },
    {
      "type": "Feature",
      "properties": {
        "name": "Abaetetuba",
        "state": "PA",
        "name_id": "abaetetuba_pa"
      },
      "geometry": {
        "coordinates": [-48.882778, -1.717778],
        "type": "Point"
      }
    },
    {
      "type": "Feature",
      "properties": {
        "name": "Abaiara",
        "state": "CE",
        "name_id": "abaiara_ce"
      },
      "geometry": {
        "coordinates": [-39.045833, -7.358889],
        "type": "Point"
      }
    },
    {
      "type": "Feature",
      "properties": {
        "name": "Acajutiba",
        "state": "BA",
        "name_id": "acajutiba_ba"
      },
      "geometry": {
        "coordinates": [-38.016944, -11.661944],
        "type": "Point"
      }
    },
    {
      "type": "Feature",
      "properties": {
        "name": "Acará",
        "state": "PA",
        "name_id": "acara_pa"
      },
      "geometry": {
        "coordinates": [-48.196944, -1.960833],
        "type": "Point"
      }
    },
    {
      "type": "Feature",
      "properties": {
        "name": "Acaraú",
        "state": "CE",
        "name_id": "acarau_ce"
      },
      "geometry": {
        "coordinates": [-40.12, -2.885833],
        "type": "Point"
      }
    },
    {
      "type": "Feature",
      "properties": {
        "name": "Acopiara",
        "state": "CE",
        "name_id": "acopiara_ce"
      },
      "geometry": {
        "coordinates": [-39.452778, -6.095],
        "type": "Point"
      }
    },
    {
      "type": "Feature",
      "properties": {
        "name": "Apiaí",
        "state": "SP",
        "name_id": "apiai_sp"
      },
      "geometry": {
        "coordinates": [-48.842778, -24.508889],
        "type": "Point"
      }
    },
    {
      "type": "Feature",
      "properties": {
        "name": "Aracaju",
        "state": "SE",
        "name_id": "aracaju_se"
      },
      "geometry": {
        "coordinates": [-37.07, -10.91],
        "type": "Point"
      }
    },
    {
      "type": "Feature",
      "properties": {
        "name": "Aracati",
        "state": "CE",
        "name_id": "aracati_ce"
      },
      "geometry": {
        "coordinates": [-37.77, -4.561944],
        "type": "Point"
      }
    },
    {
      "type": "Feature",
      "properties": {
        "name": "Araçás",
        "state": "BA",
        "name_id": "aracas_ba"
      },
      "geometry": {
        "coordinates": [-38.202778, -12.22],
        "type": "Point"
      }
    },
    {
      "type": "Feature",
      "properties": {
        "name": "Araçatuba",
        "state": "SP",
        "name_id": "aracatuba_sp"
      },
      "geometry": {
        "coordinates": [-50.432778, -21.208889],
        "type": "Point"
      }
    },
    {
      "type": "Feature",
      "properties": {
        "name": "Araçoiaba",
        "state": "PE",
        "name_id": "aracoiaba_pe"
      },
      "geometry": {
        "coordinates": [-35.090833, -7.79],
        "type": "Point"
      }
    },
    {
      "type": "Feature",
      "properties": {
        "name": "Araguari",
        "state": "MG",
        "name_id": "araguari_mg"
      },
      "geometry": {
        "coordinates": [-48.186944, -18.648889],
        "type": "Point"
      }
    },
    {
      "type": "Feature",
      "properties": {
        "name": "Arapiraca",
        "state": "AL",
        "name_id": "arapiraca_al"
      },
      "geometry": {
        "coordinates": [-36.660833, -9.751944],
        "type": "Point"
      }
    },
    {
      "type": "Feature",
      "properties": {
        "name": "Arapongas",
        "state": "PR",
        "name_id": "arapongas_pr"
      },
      "geometry": {
        "coordinates": [-51.423889, -23.418889],
        "type": "Point"
      }
    },
    {
      "type": "Feature",
      "properties": {
        "name": "Arapoti",
        "state": "PR",
        "name_id": "arapoti_pr"
      },
      "geometry": {
        "coordinates": [-49.826944, -24.157778],
        "type": "Point"
      }
    },
    {
      "type": "Feature",
      "properties": {
        "name": "Araranguá",
        "state": "SC",
        "name_id": "ararangua_sc"
      },
      "geometry": {
        "coordinates": [-49.485833, -28.935],
        "type": "Point"
      }
    },
    {
      "type": "Feature",
      "properties": {
        "name": "Araraquara",
        "state": "SP",
        "name_id": "araraquara_sp"
      },
      "geometry": {
        "coordinates": [-48.175833, -21.793889],
        "type": "Point"
      }
    },
    {
      "type": "Feature",
      "properties": {
        "name": "Aratuba",
        "state": "CE",
        "name_id": "aratuba_ce"
      },
      "geometry": {
        "coordinates": [-39.045, -4.417778],
        "type": "Point"
      }
    },
    {
      "type": "Feature",
      "properties": {
        "name": "Araxá",
        "state": "MS",
        "name_id": "araxa_ms"
      },
      "geometry": {
        "coordinates": [-46.940833, -19.592778],
        "type": "Point"
      }
    },
    {
      "type": "Feature",
      "properties": {
        "name": "Ariquemes",
        "state": "RO",
        "name_id": "ariquemes_ro"
      },
      "geometry": {
        "coordinates": [-63.040833, -9.913333],
        "type": "Point"
      }
    },
    {
      "type": "Feature",
      "properties": {
        "name": "Ariranha",
        "state": "SP",
        "name_id": "ariranha_sp"
      },
      "geometry": {
        "coordinates": [-48.786944, -21.18777],
        "type": "Point"
      }
    },
    {
      "type": "Feature",
      "properties": {
        "name": "Arujá",
        "state": "SP",
        "name_id": "aruja_sp"
      },
      "geometry": {
        "coordinates": [-46.320833, -23.395833],
        "type": "Point"
      }
    },
    {
      "type": "Feature",
      "properties": {
        "name": "Assu",
        "state": "RN",
        "name_id": "assu_rn"
      },
      "geometry": {
        "coordinates": [-36.908889, -5.576944],
        "type": "Point"
      }
    },
    {
      "type": "Feature",
      "properties": {
        "name": "Atibaia",
        "state": "SP",
        "name_id": "atibaia_sp"
      },
      "geometry": {
        "coordinates": [-46.55, -23.116944],
        "type": "Point"
      }
    },
    {
      "type": "Feature",
      "properties": {
        "name": "Avaí",
        "state": "SP",
        "name_id": "avai_sp"
      },
      "geometry": {
        "coordinates": [-49.332778, -22.146944],
        "type": "Point"
      }
    },
    {
      "type": "Feature",
      "properties": {
        "name": "Avanhandava",
        "state": "SP",
        "name_id": "avanhandava_sp"
      },
      "geometry": {
        "coordinates": [-49.95, -21.460833],
        "type": "Point"
      }
    },
    {
      "type": "Feature",
      "properties": {
        "name": "Avaré",
        "state": "SP",
        "name_id": "avare_sp"
      },
      "geometry": {
        "coordinates": [-48.925833, -23.098889],
        "type": "Point"
      }
    },
    {
      "type": "Feature",
      "properties": {
        "name": "Bacabal",
        "state": "MA",
        "name_id": "bacabal_ma"
      },
      "geometry": {
        "coordinates": [-44.78, -4.225],
        "type": "Point"
      }
    },
    {
      "type": "Feature",
      "properties": {
        "name": "Bacurituba",
        "state": "MA",
        "name_id": "bacurituba_ma"
      },
      "geometry": {
        "coordinates": [-44.737778, -2.705833],
        "type": "Point"
      }
    },
    {
      "type": "Feature",
      "properties": {
        "name": "Baependi",
        "state": "MG",
        "name_id": "baependi_mg"
      },
      "geometry": {
        "coordinates": [-44.89, -21.958889],
        "type": "Point"
      }
    },
    {
      "type": "Feature",
      "properties": {
        "name": "Banabuiú",
        "state": "CE",
        "name_id": "banabuiu_ce"
      },
      "geometry": {
        "coordinates": [-38.920833, -5.31],
        "type": "Point"
      }
    },
    {
      "type": "Feature",
      "properties": {
        "name": "Barueri",
        "state": "SP",
        "name_id": "barueri_sp"
      },
      "geometry": {
        "coordinates": [-46.909444, -23.510556],
        "type": "Point"
      }
    },
    {
      "type": "Feature",
      "properties": {
        "name": "Baturité",
        "state": "CE",
        "name_id": "baturite_ce"
      },
      "geometry": {
        "coordinates": [-38.885, -4.328889],
        "type": "Point"
      }
    },
    {
      "type": "Feature",
      "properties": {
        "name": "Bauru",
        "state": "SP",
        "name_id": "bauru_sp"
      },
      "geometry": {
        "coordinates": [-49.060833, -22.315],
        "type": "Point"
      }
    },
    {
      "type": "Feature",
      "properties": {
        "name": "Bertioga",
        "state": "SP",
        "name_id": "bertioga_sp"
      },
      "geometry": {
        "coordinates": [-46.138889, -23.853889],
        "type": "Point"
      }
    },
    {
      "type": "Feature",
      "properties": {
        "name": "Beruri",
        "state": "AM",
        "name_id": "beruri_am"
      },
      "geometry": {
        "coordinates": [-61.373056, -3.898333],
        "type": "Point"
      }
    },
    {
      "type": "Feature",
      "properties": {
        "name": "Biguaçu",
        "state": "SC",
        "name_id": "biguacu_sc"
      },
      "geometry": {
        "coordinates": [-48.655833, -27.493889],
        "type": "Point"
      }
    },
    {
      "type": "Feature",
      "properties": {
        "name": "Birigui",
        "state": "SP",
        "name_id": "birigui_sp"
      },
      "geometry": {
        "coordinates": [-50.34, -21.288889],
        "type": "Point"
      }
    },
    {
      "type": "Feature",
      "properties": {
        "name": "Bocaiuva",
        "state": "MG",
        "name_id": "bocaiuva_mg"
      },
      "geometry": {
        "coordinates": [-43.815, -17.107778],
        "type": "Point"
      }
    },
    {
      "type": "Feature",
      "properties": {
        "name": "Boituva",
        "state": "SP",
        "name_id": "boituva_sp"
      },
      "geometry": {
        "coordinates": [-47.671944, -23.282778],
        "type": "Point"
      }
    },
    {
      "type": "Feature",
      "properties": {
        "name": "Borá",
        "state": "SP",
        "name_id": "bora_sp"
      },
      "geometry": {
        "coordinates": [-50.533889, -22.27],
        "type": "Point"
      }
    },
    {
      "type": "Feature",
      "properties": {
        "name": "Borborema",
        "state": "SP",
        "name_id": "borborema_sp"
      },
      "geometry": {
        "coordinates": [-49.073889, -21.62],
        "type": "Point"
      }
    },
    {
      "type": "Feature",
      "properties": {
        "name": "Botucatu",
        "state": "SP",
        "name_id": "botucatu_sp"
      },
      "geometry": {
        "coordinates": [-48.445, -22.885833],
        "type": "Point"
      }
    },
    {
      "type": "Feature",
      "properties": {
        "name": "Buerarema",
        "state": "BA",
        "name_id": "buerarema_ba"
      },
      "geometry": {
        "coordinates": [-39.3, -14.958889],
        "type": "Point"
      }
    },
    {
      "type": "Feature",
      "properties": {
        "name": "Buri",
        "state": "SP",
        "name_id": "buri_sp"
      },
      "geometry": {
        "coordinates": [-48.592778, -23.797778],
        "type": "Point"
      }
    },
    {
      "type": "Feature",
      "properties": {
        "name": "Buritama",
        "state": "SP",
        "name_id": "buritama_sp"
      },
      "geometry": {
        "coordinates": [-50.146944, -21.065833],
        "type": "Point"
      }
    },
    {
      "type": "Feature",
      "properties": {
        "name": "Caapiranga",
        "state": "AM",
        "name_id": "caapiranga_am"
      },
      "geometry": {
        "coordinates": [-61.208889, -3.3275],
        "type": "Point"
      }
    },
    {
      "type": "Feature",
      "properties": {
        "name": "Caaporã",
        "state": "PB",
        "name_id": "caapora_pb"
      },
      "geometry": {
        "coordinates": [-34.907778, -7.515833],
        "type": "Point"
      }
    },
    {
      "type": "Feature",
      "properties": {
        "name": "Caarapó",
        "state": "MS",
        "name_id": "caarapo_ms"
      },
      "geometry": {
        "coordinates": [-54.821944, -22.633889],
        "type": "Point"
      }
    },
    {
      "type": "Feature",
      "properties": {
        "name": "Caatiba",
        "state": "BA",
        "name_id": "caatiba_ba"
      },
      "geometry": {
        "coordinates": [-40.407778, -14.976944],
        "type": "Point"
      }
    },
    {
      "type": "Feature",
      "properties": {
        "name": "Caçapava",
        "state": "SP",
        "name_id": "cacapava_sp"
      },
      "geometry": {
        "coordinates": [-45.706944, -23.100833],
        "type": "Point"
      }
    },
    {
      "type": "Feature",
      "properties": {
        "name": "Caçu",
        "state": "GO",
        "name_id": "cacu_go"
      },
      "geometry": {
        "coordinates": [-51.130833, -18.556944],
        "type": "Point"
      }
    },
    {
      "type": "Feature",
      "properties": {
        "name": "Caém",
        "state": "BA",
        "name_id": "caem_ba"
      },
      "geometry": {
        "coordinates": [-40.435, -11.090833],
        "type": "Point"
      }
    },
    {
      "type": "Feature",
      "properties": {
        "name": "Cajapió",
        "state": "MA",
        "name_id": "cajapio_ma"
      },
      "geometry": {
        "coordinates": [-44.675, -2.880833],
        "type": "Point"
      }
    },
    {
      "type": "Feature",
      "properties": {
        "name": "Cajuru",
        "state": "SP",
        "name_id": "cajuru_sp"
      },
      "geometry": {
        "coordinates": [-47.303889, -21.275],
        "type": "Point"
      }
    },
    {
      "type": "Feature",
      "properties": {
        "name": "Camaçari",
        "state": "BA",
        "name_id": "camacari_ba"
      },
      "geometry": {
        "coordinates": [-38.323889, -12.697778],
        "type": "Point"
      }
    },
    {
      "type": "Feature",
      "properties": {
        "name": "Camaquã",
        "state": "RS",
        "name_id": "camaqua_rs"
      },
      "geometry": {
        "coordinates": [-51.811944, -30.850833],
        "type": "Point"
      }
    },
    {
      "type": "Feature",
      "properties": {
        "name": "Capivari",
        "state": "SP",
        "name_id": "capivari_sp"
      },
      "geometry": {
        "coordinates": [-47.507778, -22.995],
        "type": "Point"
      }
    },
    {
      "type": "Feature",
      "properties": {
        "name": "Capixaba",
        "state": "AC",
        "name_id": "capixaba_ac"
      },
      "geometry": {
        "coordinates": [-67.675833, -10.572778],
        "type": "Point"
      }
    },
    {
      "type": "Feature",
      "properties": {
        "name": "Cuiabá",
        "state": "MT",
        "name_id": "cuiaba_mt"
      },
      "geometry": {
        "coordinates": [-56.096944, -15.595833],
        "type": "Point"
      }
    },
    {
      "type": "Feature",
      "properties": {
        "name": "Curitiba",
        "state": "PR",
        "name_id": "curitiba_pr"
      },
      "geometry": {
        "coordinates": [-49.271944, -25.429722],
        "type": "Point"
      }
    },
    {
      "type": "Feature",
      "properties": {
        "name": "Echaporã",
        "state": "SP",
        "name_id": "echapora_sp"
      },
      "geometry": {
        "coordinates": [-50.200833, -22.428889],
        "type": "Point"
      }
    },
    {
      "type": "Feature",
      "properties": {
        "name": "Eirunepé",
        "state": "AM",
        "name_id": "eirunepe_am"
      },
      "geometry": {
        "coordinates": [-69.873889, -6.66],
        "type": "Point"
      }
    },
    {
      "type": "Feature",
      "properties": {
        "name": "Embu das Artes",
        "state": "SP",
        "name_id": "embu_sp"
      },
      "geometry": {
        "coordinates": [-46.851944, -23.648889],
        "type": "Point"
      }
    },
    {
      "type": "Feature",
      "properties": {
        "name": "Embu-Guaçu",
        "state": "SP",
        "name_id": "embuguacu_sp"
      },
      "geometry": {
        "coordinates": [-46.810833, -23.831944],
        "type": "Point"
      }
    },
    {
      "type": "Feature",
      "properties": {
        "name": "Erebango",
        "state": "RS",
        "name_id": "erebango_rs"
      },
      "geometry": {
        "coordinates": [-52.301944, -27.855],
        "type": "Point"
      }
    },
    {
      "type": "Feature",
      "properties": {
        "name": "Erechim",
        "state": "RS",
        "name_id": "erechim_rs"
      },
      "geometry": {
        "coordinates": [-52.273889, -27.633889],
        "type": "Point"
      }
    },
    {
      "type": "Feature",
      "properties": {
        "name": "Ereré",
        "state": "CE",
        "name_id": "erere_ce"
      },
      "geometry": {
        "coordinates": [-38.348889, -6.031944],
        "type": "Point"
      }
    },
    {
      "type": "Feature",
      "properties": {
        "name": "Exu",
        "state": "PE",
        "name_id": "exu_pe"
      },
      "geometry": {
        "coordinates": [-39.723889, -7.511944],
        "type": "Point"
      }
    },
    {
      "type": "Feature",
      "properties": {
        "name": "Garanhuns",
        "state": "PE",
        "name_id": "garanhuns_pe"
      },
      "geometry": {
        "coordinates": [-36.492778, -8.890278],
        "type": "Point"
      }
    },
    {
      "type": "Feature",
      "properties": {
        "name": "Garuva",
        "state": "SC",
        "name_id": "garuva_sc"
      },
      "geometry": {
        "coordinates": [-48.855, -26.026944],
        "type": "Point"
      }
    },
    {
      "type": "Feature",
      "properties": {
        "name": "Goioxim",
        "state": "PR",
        "name_id": "goioxim_pr"
      },
      "geometry": {
        "coordinates": [-51.992778, -25.195],
        "type": "Point"
      }
    },
    {
      "type": "Feature",
      "properties": {
        "name": "Gravatá",
        "state": "PE",
        "name_id": "gravata_pe"
      },
      "geometry": {
        "coordinates": [-35.565, -8.200833],
        "type": "Point"
      }
    },
    {
      "type": "Feature",
      "properties": {
        "name": "Gravataí",
        "state": "RS",
        "name_id": "gravatai_rs"
      },
      "geometry": {
        "coordinates": [-50.993889, -29.943333],
        "type": "Point"
      }
    },
    {
      "type": "Feature",
      "properties": {
        "name": "Gravatal",
        "state": "RS",
        "name_id": "gravatal_sc"
      },
      "geometry": {
        "coordinates": [-49.035, -28.330833],
        "type": "Point"
      }
    },
    {
      "type": "Feature",
      "properties": {
        "name": "Guaçuí",
        "state": "ES",
        "name_id": "guacui_es"
      },
      "geometry": {
        "coordinates": [-41.678889, -20.775833],
        "type": "Point"
      }
    },
    {
      "type": "Feature",
      "properties": {
        "name": "Guaimbê",
        "state": "SP",
        "name_id": "guaimbe_sp"
      },
      "geometry": {
        "coordinates": [-49.896944, -21.91],
        "type": "Point"
      }
    },
    {
      "type": "Feature",
      "properties": {
        "name": "Guaíra",
        "state": "SP",
        "name_id": "guaira_sp"
      },
      "geometry": {
        "coordinates": [-48.310833, -20.317778],
        "type": "Point"
      }
    },
    {
      "type": "Feature",
      "properties": {
        "name": "Guajará-Mirim",
        "state": "RO",
        "name_id": "guajaramirim_ro"
      },
      "geometry": {
        "coordinates": [-65.339444, -10.782778],
        "type": "Point"
      }
    },
    {
      "type": "Feature",
      "properties": {
        "name": "Guapiara",
        "state": "SP",
        "name_id": "guapiara_sp"
      },
      "geometry": {
        "coordinates": [-48.532778, -24.185],
        "type": "Point"
      }
    },
    {
      "type": "Feature",
      "properties": {
        "name": "Guará",
        "state": "SP",
        "name_id": "guara_sp"
      },
      "geometry": {
        "coordinates": [-47.823889, -20.427778],
        "type": "Point"
      }
    },
    {
      "type": "Feature",
      "properties": {
        "name": "Guaraçaí",
        "state": "SP",
        "name_id": "guaracai_sp"
      },
      "geometry": {
        "coordinates": [-51.206944, -21.027778],
        "type": "Point"
      }
    },
    {
      "type": "Feature",
      "properties": {
        "name": "Guarantã do Norte",
        "state": "MT",
        "name_id": "guarantadonorte_mt"
      },
      "geometry": {
        "coordinates": [-54.91, -9.787778],
        "type": "Point"
      }
    },
    {
      "type": "Feature",
      "properties": {
        "name": "Guarapari",
        "state": "ES",
        "name_id": "guarapari_es"
      },
      "geometry": {
        "coordinates": [-40.510833, -20.657778],
        "type": "Point"
      }
    },
    {
      "type": "Feature",
      "properties": {
        "name": "Guarapuava",
        "state": "PR",
        "name_id": "guarapuava_pr"
      },
      "geometry": {
        "coordinates": [-51.457778, -25.395],
        "type": "Point"
      }
    },
    {
      "type": "Feature",
      "properties": {
        "name": "Guararapes",
        "state": "SP",
        "name_id": "guararapes_sp"
      },
      "geometry": {
        "coordinates": [-50.642778, -21.260833],
        "type": "Point"
      }
    },
    {
      "type": "Feature",
      "properties": {
        "name": "Guaratinga",
        "state": "BA",
        "name_id": "guaratinga_ba"
      },
      "geometry": {
        "coordinates": [-39.782778, -16.583889],
        "type": "Point"
      }
    },
    {
      "type": "Feature",
      "properties": {
        "name": "Guariba",
        "state": "SP",
        "name_id": "guariba_sp"
      },
      "geometry": {
        "coordinates": [-48.227778, -21.36],
        "type": "Point"
      }
    },
    {
      "type": "Feature",
      "properties": {
        "name": "Guarujá",
        "state": "SP",
        "name_id": "guaruja_sp"
      },
      "geometry": {
        "coordinates": [-46.255833, -23.992778],
        "type": "Point"
      }
    },
    {
      "type": "Feature",
      "properties": {
        "name": "Guarulhos",
        "state": "SP",
        "name_id": "guaruja_sp"
      },
      "geometry": {
        "coordinates": [-46.532778, -23.462778],
        "type": "Point"
      }
    },
    {
      "type": "Feature",
      "properties": {
        "name": "Guaxupé",
        "state": "MG",
        "name_id": "guaxupe_mg"
      },
      "geometry": {
        "coordinates": [-46.712778, -21.305],
        "type": "Point"
      }
    },
    {
      "type": "Feature",
      "properties": {
        "name": "Guiratinga",
        "state": "MT",
        "name_id": "guiratinga_mt"
      },
      "geometry": {
        "coordinates": [-53.757778, -16.348889],
        "type": "Point"
      }
    },
    {
      "type": "Feature",
      "properties": {
        "name": "Guiricema",
        "state": "MG",
        "name_id": "guiricema_mg"
      },
      "geometry": {
        "coordinates": [-42.717778, -21.007778],
        "type": "Point"
      }
    },
    {
      "type": "Feature",
      "properties": {
        "name": "Gurinhatã",
        "state": "MG",
        "name_id": "gurinhata_mg"
      },
      "geometry": {
        "coordinates": [-49.785833, -19.212778],
        "type": "Point"
      }
    },
    {
      "type": "Feature",
      "properties": {
        "name": "Gurupi",
        "state": "TO",
        "name_id": "gurupi_to"
      },
      "geometry": {
        "coordinates": [-49.068889, -11.73],
        "type": "Point"
      }
    },
    {
      "type": "Feature",
      "properties": {
        "name": "Humaitá",
        "state": "AM",
        "name_id": "humaita_am"
      },
      "geometry": {
        "coordinates": [-63.020833, -7.506111],
        "type": "Point"
      }
    },
    {
      "type": "Feature",
      "properties": {
        "name": "Iacanga",
        "state": "SP",
        "name_id": "iacanga_sp"
      },
      "geometry": {
        "coordinates": [-49.025, -21.89],
        "type": "Point"
      }
    },
    {
      "type": "Feature",
      "properties": {
        "name": "Ibaté",
        "state": "SP",
        "name_id": "ibate_sp"
      },
      "geometry": {
        "coordinates": [-47.996944, -21.955],
        "type": "Point"
      }
    },
    {
      "type": "Feature",
      "properties": {
        "name": "Ibiá",
        "state": "MG",
        "name_id": "ibia_mg"
      },
      "geometry": {
        "coordinates": [-46.538889, -19.477778],
        "type": "Point"
      }
    },
    {
      "type": "Feature",
      "properties": {
        "name": "Ibiporã",
        "state": "PR",
        "name_id": "ibipora_pr"
      },
      "geometry": {
        "coordinates": [-51.047778, -23.268889],
        "type": "Point"
      }
    },
    {
      "type": "Feature",
      "properties": {
        "name": "Ibirarema",
        "state": "SP",
        "name_id": "ibirarema_sp"
      },
      "geometry": {
        "coordinates": [-50.072778, -22.817778],
        "type": "Point"
      }
    },
    {
      "type": "Feature",
      "properties": {
        "name": "Ibitinga",
        "state": "SP",
        "name_id": "ibitinga_sp"
      },
      "geometry": {
        "coordinates": [-48.828889, -21.757778],
        "type": "Point"
      }
    },
    {
      "type": "Feature",
      "properties": {
        "name": "Ibiúna",
        "state": "SP",
        "name_id": "ibiuna_sp"
      },
      "geometry": {
        "coordinates": [-47.222778, -23.655833],
        "type": "Point"
      }
    },
    {
      "type": "Feature",
      "properties": {
        "name": "Igaraçu do Tietê",
        "state": "SP",
        "name_id": "igaracu_sp"
      },
      "geometry": {
        "coordinates": [-48.557778, -22.508889],
        "type": "Point"
      }
    },
    {
      "type": "Feature",
      "properties": {
        "name": "Iguatemi",
        "state": "MS",
        "name_id": "iguatemi_ms"
      },
      "geometry": {
        "coordinates": [-54.560833, -23.68],
        "type": "Point"
      }
    },
    {
      "type": "Feature",
      "properties": {
        "name": "Imbaú",
        "state": "PR",
        "name_id": "imbau_pr"
      },
      "geometry": {
        "coordinates": [-50.760833, -24.445],
        "type": "Point"
      }
    },
    {
      "type": "Feature",
      "properties": {
        "name": "Imbé",
        "state": "RS",
        "name_id": "imbe_rs"
      },
      "geometry": {
        "coordinates": [-50.127778, -29.975],
        "type": "Point"
      }
    },
    {
      "type": "Feature",
      "properties": {
        "name": "Imbituba",
        "state": "SC",
        "name_id": "imbituba_sc"
      },
      "geometry": {
        "coordinates": [-48.670278, -28.24],
        "type": "Point"
      }
    },
    {
      "type": "Feature",
      "properties": {
        "name": "Indaiatuba",
        "state": "SP",
        "name_id": "indaiatuba_sp"
      },
      "geometry": {
        "coordinates": [-47.217778, -23.09],
        "type": "Point"
      }
    },
    {
      "type": "Feature",
      "properties": {
        "name": "Inhambupe",
        "state": "BA",
        "name_id": "inhambupe_ba"
      },
      "geometry": {
        "coordinates": [-38.352778, -11.783889],
        "type": "Point"
      }
    },
    {
      "type": "Feature",
      "properties": {
        "name": "Inhapim",
        "state": "MG",
        "name_id": "inhapim_mg"
      },
      "geometry": {
        "coordinates": [-42.12, -19.548889],
        "type": "Point"
      }
    },
    {
      "type": "Feature",
      "properties": {
        "name": "Inimutaba",
        "state": "MG",
        "name_id": "inimutaba_mg"
      },
      "geometry": {
        "coordinates": [-44.360833, -18.728889],
        "type": "Point"
      }
    },
    {
      "type": "Feature",
      "properties": {
        "name": "Ipameri",
        "state": "GO",
        "name_id": "ipameri_go"
      },
      "geometry": {
        "coordinates": [-48.16, -17.721944],
        "type": "Point"
      }
    },
    {
      "type": "Feature",
      "properties": {
        "name": "Ipatinga",
        "state": "MG",
        "name_id": "ipatinga_mg"
      },
      "geometry": {
        "coordinates": [-42.536944, -19.467778],
        "type": "Point"
      }
    },
    {
      "type": "Feature",
      "properties": {
        "name": "Iporã",
        "state": "PR",
        "name_id": "ipora_pr"
      },
      "geometry": {
        "coordinates": [-53.703889, -24.002778],
        "type": "Point"
      }
    },
    {
      "type": "Feature",
      "properties": {
        "name": "Ipuaçu",
        "state": "SC",
        "name_id": "ipuacu_sc"
      },
      "geometry": {
        "coordinates": [-52.455, -26.630833],
        "type": "Point"
      }
    },
    {
      "type": "Feature",
      "properties": {
        "name": "Ipiranga",
        "state": "PR",
        "name_id": "ipiranga_pr"
      },
      "geometry": {
        "coordinates": [-50.583889, -25.023889],
        "type": "Point"
      }
    },
    {
      "type": "Feature",
      "properties": {
        "name": "Iracema",
        "state": "CE",
        "name_id": "iracema_ce"
      },
      "geometry": {
        "coordinates": [-38.305833, -5.811944],
        "type": "Point"
      }
    },
    {
      "type": "Feature",
      "properties": {
        "name": "Itaberaba",
        "state": "BA",
        "name_id": "itaberaba_ba"
      },
      "geometry": {
        "coordinates": [-40.306944, -12.527778],
        "type": "Point"
      }
    },
    {
      "type": "Feature",
      "properties": {
        "name": "Itabira",
        "state": "MG",
        "name_id": "itabira_mg"
      },
      "geometry": {
        "coordinates": [-43.226944, -19.618889],
        "type": "Point"
      }
    },
    {
      "type": "Feature",
      "properties": {
        "name": "Itaboraí",
        "state": "RJ",
        "name_id": "itaborai_rj"
      },
      "geometry": {
        "coordinates": [-42.855833, -22.7475],
        "type": "Point"
      }
    },
    {
      "type": "Feature",
      "properties": {
        "name": "Itabuna",
        "state": "BA",
        "name_id": "itabuna_ba"
      },
      "geometry": {
        "coordinates": [-39.28, -14.785833],
        "type": "Point"
      }
    },
    {
      "type": "Feature",
      "properties": {
        "name": "Itacaré",
        "state": "BA",
        "name_id": "itacare_ba"
      },
      "geometry": {
        "coordinates": [-38.996944, -14.277778],
        "type": "Point"
      }
    },
    {
      "type": "Feature",
      "properties": {
        "name": "Itacuruba",
        "state": "BA",
        "name_id": "itacuruba_pe"
      },
      "geometry": {
        "coordinates": [-38.703889, -8.833889],
        "type": "Point"
      }
    },
    {
      "type": "Feature",
      "properties": {
        "name": "Itaguara",
        "state": "MG",
        "name_id": "itaguara_mg"
      },
      "geometry": {
        "coordinates": [-44.487778, -20.391944],
        "type": "Point"
      }
    },
    {
      "type": "Feature",
      "properties": {
        "name": "Itajaí",
        "state": "SC",
        "name_id": "itajai_sc"
      },
      "geometry": {
        "coordinates": [-48.661944, -26.907778],
        "type": "Point"
      }
    },
    {
      "type": "Feature",
      "properties": {
        "name": "Itajobi",
        "state": "SP",
        "name_id": "itajobi_sp"
      },
      "geometry": {
        "coordinates": [-49.053889, -21.317778],
        "type": "Point"
      }
    },
    {
      "type": "Feature",
      "properties": {
        "name": "Itajubá",
        "state": "MG",
        "name_id": "itajuba_mg"
      },
      "geometry": {
        "coordinates": [-45.452778, -22.425833],
        "type": "Point"
      }
    },
    {
      "type": "Feature",
      "properties": {
        "name": "Itamarati",
        "state": "AM",
        "name_id": "itamarati_am"
      },
      "geometry": {
        "coordinates": [-68.252778, -6.425],
        "type": "Point"
      }
    },
    {
      "type": "Feature",
      "properties": {
        "name": "Itanhaém",
        "state": "SP",
        "name_id": "itanhaem_sp"
      },
      "geometry": {
        "coordinates": [-46.788889, -24.182778],
        "type": "Point"
      }
    },
    {
      "type": "Feature",
      "properties": {
        "name": "Itanhandu",
        "state": "MG",
        "name_id": "itanhandu_mg"
      },
      "geometry": {
        "coordinates": [-44.935, -22.295833],
        "type": "Point"
      }
    },
    {
      "type": "Feature",
      "properties": {
        "name": "Itaocara",
        "state": "RJ",
        "name_id": "itaocara_rj"
      },
      "geometry": {
        "coordinates": [-42.081944, -21.678889],
        "type": "Point"
      }
    },
    {
      "type": "Feature",
      "properties": {
        "name": "Itapetininga",
        "state": "SP",
        "name_id": "itapetininga_sp"
      },
      "geometry": {
        "coordinates": [-48.053056, -23.591667],
        "type": "Point"
      }
    },
    {
      "type": "Feature",
      "properties": {
        "name": "Itapeva",
        "state": "SP",
        "name_id": "itapeva_sp"
      },
      "geometry": {
        "coordinates": [-48.875833, -23.981944],
        "type": "Point"
      }
    },
    {
      "type": "Feature",
      "properties": {
        "name": "Itapeva",
        "state": "SP",
        "name_id": "itapeva_sp"
      },
      "geometry": {
        "coordinates": [-48.875833, -23.981944],
        "type": "Point"
      }
    },
    {
      "type": "Feature",
      "properties": {
        "name": "Itapevi",
        "state": "SP",
        "name_id": "itapevi_sp"
      },
      "geometry": {
        "coordinates": [-46.933889, -23.548889],
        "type": "Point"
      }
    },
    {
      "type": "Feature",
      "properties": {
        "name": "Itapipoca",
        "state": "CE",
        "name_id": "itapipoca_ce"
      },
      "geometry": {
        "coordinates": [-39.578889, -3.493889],
        "type": "Point"
      }
    },
    {
      "type": "Feature",
      "properties": {
        "name": "Itapira",
        "state": "SP",
        "name_id": "itapira_sp"
      },
      "geometry": {
        "coordinates": [-46.821944, -22.435833],
        "type": "Point"
      }
    },
    {
      "type": "Feature",
      "properties": {
        "name": "Itatiaia",
        "state": "RJ",
        "name_id": "itatiaia_rj"
      },
      "geometry": {
        "coordinates": [-44.559167, -22.491389],
        "type": "Point"
      }
    },
    {
      "type": "Feature",
      "properties": {
        "name": "Itatiba",
        "state": "SP",
        "name_id": "itatiba_sp"
      },
      "geometry": {
        "coordinates": [-46.838611, -23.006667],
        "type": "Point"
      }
    },
    {
      "type": "Feature",
      "properties": {
        "name": "Itaúna",
        "state": "MG",
        "name_id": "itauna_mg"
      },
      "geometry": {
        "coordinates": [-44.575833, -20.075],
        "type": "Point"
      }
    },
    {
      "type": "Feature",
      "properties": {
        "name": "Itororó",
        "state": "BA",
        "name_id": "itororo_ba"
      },
      "geometry": {
        "coordinates": [-40.07, -15.116944],
        "type": "Point"
      }
    },
    {
      "type": "Feature",
      "properties": {
        "name": "Itu",
        "state": "SP",
        "name_id": "itu_sp"
      },
      "geometry": {
        "coordinates": [-47.298889, -23.263889],
        "type": "Point"
      }
    },
    {
      "type": "Feature",
      "properties": {
        "name": "Ituiutaba",
        "state": "MG",
        "name_id": "ituiutaba_mg"
      },
      "geometry": {
        "coordinates": [-49.465, -18.968889],
        "type": "Point"
      }
    },
    {
      "type": "Feature",
      "properties": {
        "name": "Ituverava",
        "state": "SP",
        "name_id": "ituverava_sp"
      },
      "geometry": {
        "coordinates": [-47.780833, -20.338889],
        "type": "Point"
      }
    },
    {
      "type": "Feature",
      "properties": {
        "name": "Jaboatão dos Guararapes",
        "state": "PE",
        "name_id": "jaboatao_pe"
      },
      "geometry": {
        "coordinates": [-35.015, -8.112778],
        "type": "Point"
      }
    },
    {
      "type": "Feature",
      "properties": {
        "name": "Jacareí",
        "state": "SP",
        "name_id": "jacarei_sp"
      },
      "geometry": {
        "coordinates": [-45.965833, -23.305],
        "type": "Point"
      }
    },
    {
      "type": "Feature",
      "properties": {
        "name": "Jacarepaguá",
        "state": "RJ",
        "name_id": "jacarepagua_rj"
      },
      "geometry": {
        "coordinates": [-43.390564778144764, -22.967953365125368],
        "type": "Point"
      }
    },
    {
      "type": "Feature",
      "properties": {
        "name": "Jaciara",
        "state": "MT",
        "name_id": "jaciara_mt"
      },
      "geometry": {
        "coordinates": [-54.967778, -15.965],
        "type": "Point"
      }
    },
    {
      "type": "Feature",
      "properties": {
        "name": "Jacuí",
        "state": "MG",
        "name_id": "jacui_mg"
      },
      "geometry": {
        "coordinates": [-46.740833, -21.016944],
        "type": "Point"
      }
    },
    {
      "type": "Feature",
      "properties": {
        "name": "Jaguaré",
        "state": "ES",
        "name_id": "jaguare_es"
      },
      "geometry": {
        "coordinates": [-40.075833, -18.905833],
        "type": "Point"
      }
    },
    {
      "type": "Feature",
      "properties": {
        "name": "Jaguariaíva",
        "state": "PR",
        "name_id": "jaguariaiva_pr"
      },
      "geometry": {
        "coordinates": [-49.705833, -24.250833],
        "type": "Point"
      }
    },
    {
      "type": "Feature",
      "properties": {
        "name": "Jaguaribe",
        "state": "CE",
        "name_id": "jaguaribe_ce"
      },
      "geometry": {
        "coordinates": [-38.621944, -5.890833],
        "type": "Point"
      }
    },
    {
      "type": "Feature",
      "properties": {
        "name": "Jaguaripe",
        "state": "BA",
        "name_id": "jaguaripe_ba"
      },
      "geometry": {
        "coordinates": [-38.895833, -13.112778],
        "type": "Point"
      }
    },
    {
      "type": "Feature",
      "properties": {
        "name": "Jaguariúna",
        "state": "SP",
        "name_id": "jaguariuna_sp"
      },
      "geometry": {
        "coordinates": [-46.985833, -22.705833],
        "type": "Point"
      }
    },
    {
      "type": "Feature",
      "properties": {
        "name": "Jataí",
        "state": "GO",
        "name_id": "jatai_go"
      },
      "geometry": {
        "coordinates": [-51.713889, -17.880833],
        "type": "Point"
      }
    },
    {
      "type": "Feature",
      "properties": {
        "name": "Jaú",
        "state": "SP",
        "name_id": "jau_sp"
      },
      "geometry": {
        "coordinates": [-48.557778, -22.295833],
        "type": "Point"
      }
    },
    {
      "type": "Feature",
      "properties": {
        "name": "Jijoca de Jericoacoara",
        "state": "CE",
        "name_id": "jijoca_ce"
      },
      "geometry": {
        "coordinates": [-40.512778, -2.793889],
        "type": "Point"
      }
    },
    {
      "type": "Feature",
      "properties": {
        "name": "Jundiaí",
        "state": "SP",
        "name_id": "jundiai_sp"
      },
      "geometry": {
        "coordinates": [-46.883889, -23.185833],
        "type": "Point"
      }
    },
    {
      "type": "Feature",
      "properties": {
        "name": "Macapá",
        "state": "AP",
        "name_id": "macapa_ap"
      },
      "geometry": {
        "coordinates": [-51.066417, 0.038567],
        "type": "Point"
      }
    },
    {
      "type": "Feature",
      "properties": {
        "name": "Maceió",
        "state": "AL",
        "name_id": "maceio_al"
      },
      "geometry": {
        "coordinates": [-35.735, 9.665833],
        "type": "Point"
      }
    },
    {
      "type": "Feature",
      "properties": {
        "name": "Mairiporã",
        "state": "SP",
        "name_id": "mairipora_sp"
      },
      "geometry": {
        "coordinates": [-46.586944, -23.318889],
        "type": "Point"
      }
    },
    {
      "type": "Feature",
      "properties": {
        "name": "Manaus",
        "state": "AM",
        "name_id": "manaus_am"
      },
      "geometry": {
        "coordinates": [-60.005556, -3.073611],
        "type": "Point"
      }
    },
    {
      "type": "Feature",
      "properties": {
        "name": "Mangaratiba",
        "state": "RJ",
        "name_id": "mangaratiba_rj"
      },
      "geometry": {
        "coordinates": [-44.040833, -22.96],
        "type": "Point"
      }
    },
    {
      "type": "Feature",
      "properties": {
        "name": "Manhuaçu",
        "state": "MG",
        "name_id": "manhuacu_mg"
      },
      "geometry": {
        "coordinates": [-42.033889, -20.257778],
        "type": "Point"
      }
    },
    {
      "type": "Feature",
      "properties": {
        "name": "Manhumirim",
        "state": "MG",
        "name_id": "manhumirim_mg"
      },
      "geometry": {
        "coordinates": [-41.957778, -20.357778],
        "type": "Point"
      }
    },
    {
      "type": "Feature",
      "properties": {
        "name": "Maraba",
        "state": "PA",
        "name_id": "maraba_pa"
      },
      "geometry": {
        "coordinates": [-49.117778, -5.368889],
        "type": "Point"
      }
    },
    {
      "type": "Feature",
      "properties": {
        "name": "Maragogi",
        "state": "AL",
        "name_id": "maragogi_al"
      },
      "geometry": {
        "coordinates": [-35.2225, -9.012222],
        "type": "Point"
      }
    },
    {
      "type": "Feature",
      "properties": {
        "name": "Mauá",
        "state": "SP",
        "name_id": "maua_sp"
      },
      "geometry": {
        "coordinates": [-46.460833, -23.667778],
        "type": "Point"
      }
    },
    {
      "type": "Feature",
      "properties": {
        "name": "Mogi Guaçu",
        "state": "SP",
        "name_id": "mogiguacu_sp"
      },
      "geometry": {
        "coordinates": [-46.941944, -22.371944],
        "type": "Point"
      }
    },
    {
      "type": "Feature",
      "properties": {
        "name": "Mogi Mirim",
        "state": "SP",
        "name_id": "mogimirim_sp"
      },
      "geometry": {
        "coordinates": [-46.957778, -22.431944],
        "type": "Point"
      }
    },
    {
      "type": "Feature",
      "properties": {
        "name": "Mongaguá",
        "state": "SP",
        "name_id": "mongagua_sp"
      },
      "geometry": {
        "coordinates": [-24.086944, -46.628889],
        "type": "Point"
      }
    },
    {
      "type": "Feature",
      "properties": {
        "name": "Nhandeara",
        "state": "SP",
        "name_id": "nhandeara_sp"
      },
      "geometry": {
        "coordinates": [-50.037778, -20.693889],
        "type": "Point"
      }
    },
    {
      "type": "Feature",
      "properties": {
        "name": "Niterói",
        "state": "RJ",
        "name_id": "niteroi_rj"
      },
      "geometry": {
        "coordinates": [-43.103889, -22.882778],
        "type": "Point"
      }
    },
    {
      "type": "Feature",
      "properties": {
        "name": "Nova Iguaçu",
        "state": "RJ",
        "name_id": "novaiguacu_rj"
      },
      "geometry": {
        "coordinates": [-43.447728, -22.760322],
        "type": "Point"
      }
    },
    {
      "type": "Feature",
      "properties": {
        "name": "Nuporanga",
        "state": "SP",
        "name_id": "nuporanga_sp"
      },
      "geometry": {
        "coordinates": [-47.748889, -20.73],
        "type": "Point"
      }
    },
    {
      "type": "Feature",
      "properties": {
        "name": "Oiapoque",
        "state": "AP",
        "name_id": "oiapoque_ap"
      },
      "geometry": {
        "coordinates": [-51.818056, -3.824722],
        "type": "Point"
      }
    },
    {
      "type": "Feature",
      "properties": {
        "name": "Ouricuri",
        "state": "PE",
        "name_id": "ouricuri_pe"
      },
      "geometry": {
        "coordinates": [-40.081667, -7.8825],
        "type": "Point"
      }
    },
    {
      "type": "Feature",
      "properties": {
        "name": "Paracatu",
        "state": "MG",
        "name_id": "paracatu_mg"
      },
      "geometry": {
        "coordinates": [-46.875, -17.221667],
        "type": "Point"
      }
    },
    {
      "type": "Feature",
      "properties": {
        "name": "Paraguaçu",
        "state": "MG",
        "name_id": "paraguacu_mg"
      },
      "geometry": {
        "coordinates": [-45.766389, -21.533056],
        "type": "Point"
      }
    },
    {
      "type": "Feature",
      "properties": {
        "name": "Paraibuna",
        "state": "SP",
        "name_id": "paraibuna_sp"
      },
      "geometry": {
        "coordinates": [-45.661944, -23.385833],
        "type": "Point"
      }
    },
    {
      "type": "Feature",
      "properties": {
        "name": "Paranaguá",
        "state": "PR",
        "name_id": "paranagua_pr"
      },
      "geometry": {
        "coordinates": [-48.508889, -25.52],
        "type": "Point"
      }
    },
    {
      "type": "Feature",
      "properties": {
        "name": "Paranapanema",
        "state": "SP",
        "name_id": "paranapanema_sp"
      },
      "geometry": {
        "coordinates": [-48.722778, -23.388889],
        "type": "Point"
      }
    },
    {
      "type": "Feature",
      "properties": {
        "name": "Paraty",
        "state": "RJ",
        "name_id": "paraty_rj"
      },
      "geometry": {
        "coordinates": [-44.713889, -23.2225],
        "type": "Point"
      }
    },
    {
      "type": "Feature",
      "properties": {
        "name": "Peruíbe",
        "state": "SP",
        "name_id": "peruibe_sp"
      },
      "geometry": {
        "coordinates": [-46.997778, -24.32],
        "type": "Point"
      }
    },
    {
      "type": "Feature",
      "properties": {
        "name": "Pindamonhangaba",
        "state": "SP",
        "name_id": "pindamonhangaba_sp"
      },
      "geometry": {
        "coordinates": [-45.461944, -22.923889],
        "type": "Point"
      }
    },
    {
      "type": "Feature",
      "properties": {
        "name": "Piracaia",
        "state": "SP",
        "name_id": "piracaia_sp"
      },
      "geometry": {
        "coordinates": [-46.357778, -23.053889],
        "type": "Point"
      }
    },
    {
      "type": "Feature",
      "properties": {
        "name": "Piracanjuba",
        "state": "GO",
        "name_id": "piracanjuba_go"
      },
      "geometry": {
        "coordinates": [-49.017778, -17.302778],
        "type": "Point"
      }
    },
    {
      "type": "Feature",
      "properties": {
        "name": "Piracicaba",
        "state": "SP",
        "name_id": "piracicaba_sp"
      },
      "geometry": {
        "coordinates": [-47.648889, -22.725],
        "type": "Point"
      }
    },
    {
      "type": "Feature",
      "properties": {
        "name": "Piraju",
        "state": "SP",
        "name_id": "piraju_sp"
      },
      "geometry": {
        "coordinates": [-49.383889, -23.193889],
        "type": "Point"
      }
    },
    {
      "type": "Feature",
      "properties": {
        "name": "Pirapora",
        "state": "MG",
        "name_id": "pirapora_mg"
      },
      "geometry": {
        "coordinates": [-44.941944, -17.345],
        "type": "Point"
      }
    },
    {
      "type": "Feature",
      "properties": {
        "name": "Piraquara",
        "state": "PR",
        "name_id": "piraquara_pr"
      },
      "geometry": {
        "coordinates": [-49.062778, -25.441944],
        "type": "Point"
      }
    },
    {
      "type": "Feature",
      "properties": {
        "name": "Pirassununga",
        "state": "SP",
        "name_id": "pirassununga_sp"
      },
      "geometry": {
        "coordinates": [-47.425833, -21.995833],
        "type": "Point"
      }
    },
    {
      "type": "Feature",
      "properties": {
        "name": "Sabará",
        "state": "MG",
        "name_id": "sabara_mg"
      },
      "geometry": {
        "coordinates": [-43.806944, -19.885833],
        "type": "Point"
      }
    },
    {
      "type": "Feature",
      "properties": {
        "name": "Sapiranga",
        "state": "RS",
        "name_id": "sapiranga_rs"
      },
      "geometry": {
        "coordinates": [-51.006944, -29.637778],
        "type": "Point"
      }
    },
    {
      "type": "Feature",
      "properties": {
        "name": "Sapucaia do Sul",
        "state": "RS",
        "name_id": "sapucaia_rs"
      },
      "geometry": {
        "coordinates": [-51.143889, -29.838889],
        "type": "Point"
      }
    },
    {
      "type": "Feature",
      "properties": {
        "name": "Sorocaba",
        "state": "SP",
        "name_id": "sorocaba_sp"
      },
      "geometry": {
        "coordinates": [-47.457778, -23.501944],
        "type": "Point"
      }
    },
    {
      "type": "Feature",
      "properties": {
        "name": "Tabapuã",
        "state": "SP",
        "name_id": "tabapua_sp"
      },
      "geometry": {
        "coordinates": [-49.031944, -20.963889],
        "type": "Point"
      }
    },
    {
      "type": "Feature",
      "properties": {
        "name": "Tabatinga",
        "state": "AM",
        "name_id": "tabatinga_am"
      },
      "geometry": {
        "coordinates": [-69.938056, -4.2525],
        "type": "Point"
      }
    },
    {
      "type": "Feature",
      "properties": {
        "name": "Taiaçu",
        "state": "SP",
        "name_id": "taiacu_sp"
      },
      "geometry": {
        "coordinates": [-48.512778, -21.143889],
        "type": "Point"
      }
    },
    {
      "type": "Feature",
      "properties": {
        "name": "Tamandaré",
        "state": "PE",
        "name_id": "tamandare_pe"
      },
      "geometry": {
        "coordinates": [-35.105, -8.76],
        "type": "Point"
      }
    },
    {
      "type": "Feature",
      "properties": {
        "name": "Tambaú",
        "state": "SP",
        "name_id": "tambau_sp"
      },
      "geometry": {
        "coordinates": [-47.273889, -21.705],
        "type": "Point"
      }
    },
    {
      "type": "Feature",
      "properties": {
        "name": "Tapejara",
        "state": "PR",
        "name_id": "tapejara_pr"
      },
      "geometry": {
        "coordinates": [-52.872778, -23.732778],
        "type": "Point"
      }
    },
    {
      "type": "Feature",
      "properties": {
        "name": "Taquaritinga",
        "state": "SP",
        "name_id": "taquaritinga_sp"
      },
      "geometry": {
        "coordinates": [-48.505, -21.405833],
        "type": "Point"
      }
    },
    {
      "type": "Feature",
      "properties": {
        "name": "Tatuí",
        "state": "SP",
        "name_id": "tatui_sp"
      },
      "geometry": {
        "coordinates": [-47.856944, -23.355833],
        "type": "Point"
      }
    },
    {
      "type": "Feature",
      "properties": {
        "name": "Taubaté",
        "state": "SP",
        "name_id": "taubate_sp"
      },
      "geometry": {
        "coordinates": [-45.558611, -23.025833],
        "type": "Point"
      }
    },
    {
      "type": "Feature",
      "properties": {
        "name": "Ubatuba",
        "state": "SP",
        "name_id": "ubatuba_sp"
      },
      "geometry": {
        "coordinates": [-45.070833, -23.433889],
        "type": "Point"
      }
    },
    {
      "type": "Feature",
      "properties": {
        "name": "Uberaba",
        "state": "MG",
        "name_id": "uberaba_mg"
      },
      "geometry": {
        "coordinates": [-47.931944, -19.747778],
        "type": "Point"
      }
    },
    {
      "type": "Feature",
      "properties": {
        "name": "Unaí",
        "state": "MG",
        "name_id": "unai_mg"
      },
      "geometry": {
        "coordinates": [-46.904167, -16.363889],
        "type": "Point"
      }
    },
    {
      "type": "Feature",
      "properties": {
        "name": "Urupema",
        "state": "SC",
        "name_id": "urupema_sc"
      },
      "geometry": {
        "coordinates": [-49.875278, -27.953611],
        "type": "Point"
      }
    },
    {
      "type": "Feature",
      "properties": {
        "name": "Votorantim",
        "state": "SP",
        "name_id": "votorantim_sp"
      },
      "geometry": {
        "coordinates": [-47.437778, -23.546944],
        "type": "Point"
      }
    },
    {
      "type": "Feature",
      "properties": {
        "name": "Votuporanga",
        "state": "SP",
        "name_id": "votuporanga_sp"
      },
      "geometry": {
        "coordinates": [-49.972778, -20.422778],
        "type": "Point"
      }
    },
    {
      "type": "Feature",
      "properties": {
        "name": "Xanxerê",
        "state": "SC",
        "name_id": "xanxere_sc"
      },
      "geometry": {
        "coordinates": [-52.403889, -26.876944],
        "type": "Point"
      }
    }
  ],
  "type": "FeatureCollection"
}
